[{"name":"BAPS Shri Swaminarayan Mandir","area":"Neasden","region":"London","county":"Brent","lat":51.5476,"lng":-0.2608,"addr":"Pramukh Swami Rd, Neasden, London NW10 8HW","phone":"+44 20 8965 2651","trad":"BAPS","note":"Europe's first traditional stone mandir (1995).","hl":false,"hours":"Daily 9am–6pm","updated":"2026-07-07"},{"name":"Shri Sanatan Hindu Mandir","area":"Wembley","region":"London","county":"Brent","lat":51.5435,"lng":-0.2982,"addr":"Ealing Rd, Wembley HA0 4TA","phone":"+44 20 8903 7737","trad":"General","note":"","hl":false},{"name":"Shree Swaminarayan Mandir Kingsbury","area":"Kingsbury","region":"London","county":"Brent","lat":51.582,"lng":-0.2578,"addr":"211 Kingsbury Rd, London NW9 8AQ","phone":"+44 20 8200 1991","trad":"Swaminarayan","note":"","hl":false},{"name":"Sri Mahalakshmi Temple","area":"East Ham","region":"London","county":"Newham","lat":51.5403,"lng":0.0504,"addr":"241 High St N, London E12 6SJ","phone":"+44 20 8552 5082","trad":"Saiva","note":"Sri Lankan Tamil temple to Mahalakshmi.","hl":false},{"name":"London Sri Murugan Temple","area":"Manor Park","region":"London","county":"Newham","lat":51.5479,"lng":0.0565,"addr":"78-90 Church Rd, London E12 6AF","phone":"+44 20 8478 8433","trad":"Saiva","note":"Traditional Saiva Murugan temple.","hl":false,"hours":"Mon–Fri 8am–1pm, 5–9pm; Sat–Sun 8am–2pm, 5–9pm","updated":"2026-07-07"},{"name":"Shirdi Sai Baba Temple","area":"East Ham","region":"London","county":"Newham","lat":51.5424,"lng":0.0504,"addr":"298 High St N, London E12 6SA","phone":"+44 7543 556334","trad":"General","note":"Also houses the Gajanan Maharaj shrine.","hl":false},{"name":"SKS Swaminarayan Temple East London","area":"Forest Gate","region":"London","county":"Newham","lat":51.5398,"lng":0.036,"addr":"22-24 Shaftesbury Rd, London E7 8PD","phone":"+44 20 8470 9375","trad":"Swaminarayan","note":"","hl":false},{"name":"VHP Hindu Centre","area":"Ilford","region":"London","county":"Redbridge","lat":51.5569,"lng":0.0747,"addr":"43 Cleveland Rd, Ilford IG1 1EE","phone":"+44 20 8553 5471","trad":"General","note":"Long-standing Vishwa Hindu Parishad centre.","hl":false},{"name":"Durga Mandir","area":"Ilford","region":"London","county":"Redbridge","lat":51.5463,"lng":0.076,"addr":"3-9 Norman Rd, Ilford IG1 2NH","phone":"+44 20 8514 4781","trad":"General","note":"","hl":false},{"name":"Sri Selva Vinayagar Temple","area":"Ilford","region":"London","county":"Redbridge","lat":51.5637,"lng":0.0819,"addr":"303 Ley St, Ilford IG1 4BN","phone":"+44 20 3931 8095","trad":"Saiva","note":"Ganesha temple.","hl":false},{"name":"Shirdi Sai Temple","area":"Ilford","region":"London","county":"Redbridge","lat":51.5611,"lng":0.0757,"addr":"122 Ley St, Ilford IG1 4BX","phone":"+44 20 8514 8333","trad":"General","note":"","hl":false},{"name":"Sri Siva Shakti Temple","area":"Ilford","region":"London","county":"Redbridge","lat":51.562,"lng":0.109,"addr":"1A Cardigan Gardens, Ilford IG3 9SY","phone":"","trad":"Saiva","note":"","hl":false},{"name":"Shree Ghanapathy Temple","area":"Wimbledon","region":"London","county":"Merton","lat":51.4234,"lng":-0.1893,"addr":"125-133 Effra Rd, London SW19 8PU","phone":"+44 20 8542 7482","trad":"Saiva","note":"Ganesha temple established in the 1980s.","hl":false,"hours":"Daily 8am–9:30pm","updated":"2026-07-07"},{"name":"Shri Kanaga Thurkkai Amman Temple","area":"West Ealing","region":"London","county":"Ealing","lat":51.5104,"lng":-0.3179,"addr":"5 Chapel Rd, London W13 9AE","phone":"+44 20 8810 0835","trad":"Saiva","note":"Ealing Amman Kovil.","hl":false},{"name":"Vishwa Hindu Mandir","area":"Southall","region":"London","county":"Ealing","lat":51.5117,"lng":-0.3754,"addr":"2 Lady Margaret Rd, Southall UB1 2RA","phone":"+44 20 8574 3870","trad":"General","note":"Major hub for West London.","hl":false},{"name":"Shree Ram Mandir","area":"Southall","region":"London","county":"Ealing","lat":51.5015,"lng":-0.3828,"addr":"22 King St, Southall UB2 4DA","phone":"+44 20 8574 5276","trad":"General","note":"","hl":false},{"name":"Asamai Temple","area":"Southall","region":"London","county":"Ealing","lat":51.5023,"lng":-0.3955,"addr":"144 Johnson St, Southall UB2 5BZ","phone":"","trad":"General","note":"","hl":false},{"name":"Shree Jalaram Mandir & Community Centre","area":"Greenford","region":"London","county":"Ealing","lat":51.5315,"lng":-0.3532,"addr":"39-45 Oldfield Ln S, Greenford UB6 9LB","phone":"+44 20 8578 8088","trad":"General","note":"Dedicated to Jalaram Bapa; runs a community food hall.","hl":false},{"name":"Lakshmi Narayan Temple","area":"Hounslow","region":"London","county":"Hounslow","lat":51.4755,"lng":-0.3658,"addr":"60 Neville Cl, Hounslow TW3 4JG","phone":"+44 20 8570 1340","trad":"General","note":"","hl":false},{"name":"BAPS Shri Swaminarayan Mandir","area":"Osterley","region":"London","county":"Hounslow","lat":51.4797,"lng":-0.3556,"addr":"Gresham Rd, Hounslow TW3 4BX","phone":"","trad":"BAPS","note":"","hl":false},{"name":"Hanuman Hindu Temple","area":"Brentford","region":"London","county":"Hounslow","lat":51.4828,"lng":-0.3181,"addr":"51 Beech Ave, Brentford TW8 8NQ","phone":"","trad":"General","note":"","hl":false},{"name":"Jalaram Jupadi Temple","area":"Hounslow","region":"London","county":"Hounslow","lat":51.4634,"lng":-0.3878,"addr":"497A Barrack Rd, Hounslow TW4 6AB","phone":"","trad":"General","note":"","hl":false},{"name":"Shree Kutch Satsang Swaminarayan Temple","area":"Kenton","region":"London","county":"Harrow","lat":51.5878,"lng":-0.3016,"addr":"Westfield Ln, Harrow HA3 9EA","phone":"+44 20 8909 9899","trad":"Swaminarayan","note":"","hl":false},{"name":"Shri Sithi Vinayagar Thevasthanam","area":"Harrow","region":"London","county":"Harrow","lat":51.5872,"lng":-0.3326,"addr":"Unit B, 59 Station Rd, Harrow HA1 2TY","phone":"+44 20 8427 5428","trad":"Saiva","note":"Ganapathi temple.","hl":false},{"name":"International Siddhashram Shakti Centre","area":"Harrow","region":"London","county":"Harrow","lat":51.5936,"lng":-0.3338,"addr":"22 Palmerston Rd, Harrow HA3 7RR","phone":"+44 20 8426 0678","trad":"General","note":"","hl":false},{"name":"Harisumiran Swaminarayan Temple","area":"Harrow","region":"London","county":"Harrow","lat":51.5822,"lng":-0.306,"addr":"63 Woodcock Hill, Harrow HA3 0JH","phone":"","trad":"Swaminarayan","note":"","hl":false},{"name":"Shrinathdham National Haveli","area":"Harrow","region":"London","county":"Harrow","lat":51.5896,"lng":-0.3318,"addr":"2a Rosslyn Cres, Harrow HA1 2SU","phone":"+44 20 8861 1207","trad":"General","note":"Pushtimarg (Vaishnav) haveli and community centre.","hl":false},{"name":"London Sree Ayyappan Temple","area":"Harrow","region":"London","county":"Harrow","lat":51.5921,"lng":-0.3322,"addr":"36 Masons Ave, Harrow HA3 5AR","phone":"+44 20 8861 5825","trad":"Saiva","note":"Ayyappan temple.","hl":false},{"name":"Shree Swaminarayan Mandir Loyadham","area":"South Harrow","region":"London","county":"Harrow","lat":51.5694,"lng":-0.3461,"addr":"15 Roxeth Hill, South Harrow HA2 0JY","phone":"+44 7866 049963","trad":"Swaminarayan","note":"","hl":false},{"name":"Highgate Hill Murugan Temple","area":"Highgate","region":"London","county":"Haringey","lat":51.5734,"lng":-0.1406,"addr":"200A Archway Rd, London N6 5BA","phone":"+44 20 8348 9835","trad":"Saiva","note":"Murugan temple.","hl":false},{"name":"ISKCON London Radha-Krishna Temple","area":"Soho","region":"London","county":"Westminster","lat":51.5159,"lng":-0.1327,"addr":"10 Soho St, London W1D 3DL","phone":"+44 20 7437 3662","trad":"ISKCON","note":"Central London ISKCON hub with Govinda's restaurant.","hl":false,"hours":"Daily 4:30am–9:30pm","updated":"2026-07-07"},{"name":"Hindu Society Centre","area":"Tooting","region":"London","county":"Wandsworth","lat":51.4334,"lng":-0.1849,"addr":"664 Garratt Ln, London SW17 0NP","phone":"+44 20 8944 0251","trad":"General","note":"Rebuilt mandir and community hall.","hl":false},{"name":"Muththumari Amman Temple","area":"Mitcham","region":"London","county":"Croydon","lat":51.3899,"lng":-0.1243,"addr":"128 Aurelia Rd, Croydon CR0 3BF","phone":"+44 20 8767 9881","trad":"Saiva","note":"Amman (Shakti) temple.","hl":false},{"name":"Sivaskanthagiri Murugan Kovil","area":"Thornton Heath","region":"London","county":"Croydon","lat":51.3933,"lng":-0.1149,"addr":"13 Thornton Rd, Thornton Heath CR7 6BD","phone":"+44 20 8684 0747","trad":"Saiva","note":"Murugan temple.","hl":false},{"name":"ISKCON South London Temple","area":"South Norwood","region":"London","county":"Croydon","lat":51.393,"lng":-0.0709,"addr":"42 Enmore Rd, London SE25 5NG","phone":"+44 300 040 0001","trad":"ISKCON","note":"ISKCON centre for South London.","hl":false},{"name":"Sri Nagapoosani Amman Temple","area":"Croydon","region":"London","county":"Croydon","lat":51.3841,"lng":-0.1081,"addr":"2a Elmwood Rd, Croydon CR0 2SG","phone":"+44 7492 454500","trad":"Saiva","note":"Amman temple.","hl":false},{"name":"Shree Vishva Sanaatana-Dharma Mandir","area":"Croydon","region":"London","county":"Croydon","lat":51.3876,"lng":-0.096,"addr":"132 Whitehorse Rd, Croydon CR0 2LA","phone":"+44 7956 348676","trad":"General","note":"Durga mandir.","hl":false},{"name":"BAPS Shri Swaminarayan Mandir","area":"Chigwell","region":"East of England","county":"Essex","lat":51.6274,"lng":0.0846,"addr":"Mandir Ln, Chigwell IG7 6ED","phone":"","trad":"BAPS","note":"","hl":false},{"name":"Bhaktivedanta Manor","area":"Aldenham","region":"East of England","county":"Hertfordshire","lat":51.6655,"lng":-0.3383,"addr":"Hilfield Ln, Radlett, Watford WD25 8EZ","phone":"+44 7778 051000","trad":"ISKCON","note":"ISKCON estate donated by George Harrison (1973).","hl":false,"hours":"Mon–Sat 10am–1pm, 4–7:30pm; Sun 10am–9:30pm","updated":"2026-07-07"},{"name":"Luton Hindu Temple & Community Centre","area":"Luton","region":"East of England","county":"Bedfordshire","lat":51.8978,"lng":-0.4892,"addr":"Hereford Rd, Luton LU4 0PS","phone":"+44 1582 663414","trad":"General","note":"","hl":false},{"name":"BAPS Shri Swaminarayan Mandir","area":"Luton","region":"East of England","county":"Bedfordshire","lat":51.8803,"lng":-0.4034,"addr":"39 Crescent Rd, Luton LU2 0AH","phone":"+44 1582 455295","trad":"BAPS","note":"","hl":false},{"name":"Bedford Hindu Temple & Community Trust","area":"Bedford","region":"East of England","county":"Bedfordshire","lat":52.1406,"lng":-0.4692,"addr":"5 Peel St, Bedford MK40 2HX","phone":"+44 7442 988966","trad":"General","note":"Shiva temple and community trust.","hl":false},{"name":"Bhagwan Valmik Sabha","area":"Bedford","region":"East of England","county":"Bedfordshire","lat":52.1239,"lng":-0.4714,"addr":"6-8 Muswell Rd, Bedford MK42 9PH","phone":"","trad":"General","note":"","hl":false},{"name":"Milton Keynes Murugan Temple","area":"Neath Hill","region":"East of England","county":"Buckinghamshire","lat":52.0573,"lng":-0.7536,"addr":"Glazier Dr, Neath Hill, Milton Keynes MK14 6HG","phone":"+44 7729 050740","trad":"Saiva","note":"Murugan temple.","hl":false},{"name":"Sri Siddhi Vinayak Mandir","area":"Broughton","region":"East of England","county":"Buckinghamshire","lat":52.0499,"lng":-0.6997,"addr":"Ferry Meadows Cl, Broughton, Milton Keynes MK10 9QY","phone":"+44 7900 562623","trad":"General","note":"At the MK Hindu Association centre.","hl":false},{"name":"Bharat Hindu Samaj Mandir","area":"Peterborough","region":"East of England","county":"Cambridgeshire","lat":52.591,"lng":-0.2504,"addr":"Unit 6, New England Complex, 11 Rock Rd, Peterborough PE1 3BU","phone":"+44 1733 315241","trad":"General","note":"Long the main Hindu temple serving Peterborough and the wider area; subject of a council sale dispute.","hl":true},{"name":"Slough Hindu Temple","area":"Slough","region":"South East","county":"Berkshire","lat":51.5087,"lng":-0.6151,"addr":"Keel Dr, Slough SL1 2XU","phone":"+44 1753 790135","trad":"General","note":"Among the first purpose-built Hindu temples in Britain (1981).","hl":false,"hours":"Daily 8am–8pm","updated":"2026-07-07"},{"name":"Reading Hindu Temple","area":"Reading","region":"South East","county":"Berkshire","lat":51.4442,"lng":-0.9654,"addr":"112 Whitley St, Reading RG2 0EQ","phone":"+44 118 975 1067","trad":"General","note":"","hl":false},{"name":"Shirdi Saibaba Temple","area":"Reading","region":"South East","county":"Berkshire","lat":51.4562,"lng":-0.9763,"addr":"44 West St, Reading RG1 1TZ","phone":"+44 118 959 1084","trad":"General","note":"","hl":false},{"name":"Vedic Society Hindu Temple","area":"Southampton","region":"South East","county":"Hampshire","lat":50.9122,"lng":-1.3905,"addr":"79-195 Radcliffe Rd, Southampton SO14 0PS","phone":"+44 23 8063 2275","trad":"General","note":"Founded 1971; among the UK's oldest Hindu temples.","hl":false,"hours":"Mon–Sat 9am–12pm, 3–8pm; Sun 9:30am–1:30pm, 3–8pm","updated":"2026-07-07"},{"name":"The Hindu Temple","area":"Bristol","region":"South West","county":"Bristol","lat":51.459,"lng":-2.557,"addr":"163B Church Rd, Redfield, Bristol BS5 9LA","phone":"+44 117 935 1007","trad":"General","note":"One of the largest Hindu temples in Bristol.","hl":false},{"name":"Hindu Community Centre & Krishna Mandir","area":"Cheltenham","region":"South West","county":"Gloucestershire","lat":51.9052,"lng":-2.0805,"addr":"Swindon Rd, Cheltenham GL50 4AY","phone":"+44 1242 584250","trad":"General","note":"The only mandir in Cheltenham.","hl":false},{"name":"Swindon Hindu Temple","area":"Swindon","region":"South West","county":"Wiltshire","lat":51.5589,"lng":-1.781,"addr":"Regent House, Theatre Sq, Swindon SN1 1QN","phone":"+44 1793 230338","trad":"General","note":"The only Hindu temple in Swindon.","hl":false},{"name":"Shree Hindu Temple & Community Centre","area":"Leicester","region":"East Midlands","county":"Leicestershire","lat":52.6408,"lng":-1.0981,"addr":"34 St Barnabas Rd, Leicester LE5 4BD","phone":"+44 116 246 4590","trad":"General","note":"Multi-deity mandir and community centre.","hl":false},{"name":"Shree Sanatan Mandir","area":"Leicester","region":"East Midlands","county":"Leicestershire","lat":52.6478,"lng":-1.1149,"addr":"84 Weymouth St, Leicester LE4 6FQ","phone":"+44 116 266 1402","trad":"General","note":"Carved limestone mandir.","hl":false,"hours":"Daily 8am–1pm, 4:30–8:30pm","updated":"2026-07-07"},{"name":"BAPS Shri Swaminarayan Mandir","area":"Leicester","region":"East Midlands","county":"Leicestershire","lat":52.6541,"lng":-1.1031,"addr":"135 Gipsy Ln, Leicester LE4 6RH","phone":"+44 116 262 3791","trad":"BAPS","note":"","hl":false},{"name":"Leicester Shri Siva Murugan Temple","area":"Leicester","region":"East Midlands","county":"Leicestershire","lat":52.6473,"lng":-1.1267,"addr":"6 Ross Walk, Leicester LE4 5HH","phone":"+44 116 367 2217","trad":"Saiva","note":"South Indian Saiva temple.","hl":false},{"name":"Shree Hanuman Temple - Salangpur Dham","area":"Leicester","region":"East Midlands","county":"Leicestershire","lat":52.6599,"lng":-1.1137,"addr":"299 Melton Rd, Leicester LE4 7AN","phone":"+44 116 266 5717","trad":"General","note":"Hanuman temple on the Golden Mile.","hl":false},{"name":"Shree Jalaram Prarthana Mandal","area":"Leicester","region":"East Midlands","county":"Leicestershire","lat":52.6286,"lng":-1.1497,"addr":"85 Narborough Rd, Leicester LE3 0LF","phone":"+44 116 254 0117","trad":"General","note":"Dedicated to Jalaram Bapa.","hl":false},{"name":"Shirdi SaiBaba Temple","area":"Leicester","region":"East Midlands","county":"Leicestershire","lat":52.6434,"lng":-1.1266,"addr":"18 Melton St, Leicester LE1 3NB","phone":"+44 116 367 1833","trad":"General","note":"","hl":false},{"name":"Shree Ram Mandir","area":"Leicester","region":"East Midlands","county":"Leicestershire","lat":52.65,"lng":-1.127,"addr":"1 Hildyard Rd, Leicester LE4 5GG","phone":"+44 116 266 4642","trad":"General","note":"","hl":false},{"name":"Shree Swaminarayan Temple","area":"Leicester","region":"East Midlands","county":"Leicestershire","lat":52.6571,"lng":-1.1215,"addr":"139-141 Loughborough Rd, Leicester LE4 5LQ","phone":"+44 116 266 6210","trad":"Swaminarayan","note":"","hl":false},{"name":"Sri Jeya Durga Temple","area":"Leicester","region":"East Midlands","county":"Leicestershire","lat":52.6594,"lng":-1.1223,"addr":"201 Loughborough Rd, Leicester LE4 7QH","phone":"+44 7405 986892","trad":"Saiva","note":"","hl":false},{"name":"Shivalaya - Leicestershire Brahma Samaj","area":"Leicester","region":"East Midlands","county":"Leicestershire","lat":52.6468,"lng":-1.1244,"addr":"15 Belgrave Rd, Leicester LE4","phone":"+44 116 251 2541","trad":"General","note":"Shiva temple on the Golden Mile.","hl":false},{"name":"Geeta Bhavan","area":"Leicester","region":"East Midlands","county":"Leicestershire","lat":52.6171,"lng":-1.1159,"addr":"70 Clarendon Park Rd, Leicester LE2 3AD","phone":"+44 116 270 7756","trad":"General","note":"","hl":false},{"name":"BAPS Shri Swaminarayan Mandir","area":"Loughborough","region":"East Midlands","county":"Leicestershire","lat":52.769,"lng":-1.1998,"addr":"132 Moira St, Loughborough LE11 1AX","phone":"+44 7496 718977","trad":"BAPS","note":"","hl":false},{"name":"Geeta Bhavan Hindu Temple","area":"Loughborough","region":"East Midlands","county":"Leicestershire","lat":52.7734,"lng":-1.2039,"addr":"Lemyngton St, Loughborough LE11 1UH","phone":"+44 7815 610945","trad":"General","note":"","hl":false},{"name":"Hindu Temple & Community Centre","area":"Nottingham","region":"East Midlands","county":"Nottinghamshire","lat":52.9588,"lng":-1.1266,"addr":"215 Carlton Rd, Nottingham NG3 2FX","phone":"+44 115 911 3384","trad":"General","note":"","hl":false},{"name":"Hindu Temple Geeta Bhawan","area":"Derby","region":"East Midlands","county":"Derbyshire","lat":52.9068,"lng":-1.4784,"addr":"96-102 Pear Tree Rd, Derby DE23 6QA","phone":"+44 1332 380407","trad":"General","note":"The main Hindu temple in Derby.","hl":false},{"name":"Hindu Mandir","area":"Wellingborough","region":"East Midlands","county":"Northamptonshire","lat":52.3054,"lng":-0.6822,"addr":"133 Highfield Rd, Wellingborough NN8 1PL","phone":"+44 1933 222250","trad":"General","note":"","hl":false},{"name":"BAPS Shri Swaminarayan Mandir","area":"Wellingborough","region":"East Midlands","county":"Northamptonshire","lat":52.3034,"lng":-0.6882,"addr":"2-22 Mill Rd, Wellingborough NN8 1PE","phone":"+44 1933 272061","trad":"BAPS","note":"","hl":false},{"name":"Shri Venkateswara (Balaji) Temple","area":"Tividale","region":"West Midlands","county":"Sandwell","lat":52.5133,"lng":-2.03,"addr":"101 Dudley Rd E, Tividale, Oldbury B69 3DU","phone":"+44 121 544 2256","trad":"General","note":"One of the largest Hindu temple complexes in Europe (opened 2006).","hl":false,"hours":"Mon–Fri 9am–1pm, 5–9pm; Sat–Sun 9am–2:30pm, 4–9pm","updated":"2026-07-07"},{"name":"Shree Geeta Bhawan","area":"Handsworth","region":"West Midlands","county":"Birmingham","lat":52.5057,"lng":-1.911,"addr":"107-117 Heathfield Rd, Handsworth, Birmingham B19 1HL","phone":"+44 121 554 4120","trad":"General","note":"One of Birmingham's oldest mandirs.","hl":false},{"name":"BAPS Shri Swaminarayan Mandir","area":"Hall Green","region":"West Midlands","county":"Birmingham","lat":52.4263,"lng":-1.8316,"addr":"75 Pitmaston Rd, Hall Green, Birmingham B28 9PP","phone":"+44 121 667 3223","trad":"BAPS","note":"","hl":false},{"name":"Shree Laxmi Narayan Mandir","area":"Tyseley","region":"West Midlands","county":"Birmingham","lat":52.4532,"lng":-1.8472,"addr":"541A Warwick Rd, Tyseley, Birmingham B11 2JP","phone":"+44 121 707 3154","trad":"General","note":"","hl":false},{"name":"Shree Ram Mandir","area":"Sparkbrook","region":"West Midlands","county":"Birmingham","lat":52.4592,"lng":-1.8701,"addr":"8 Walford Rd, Sparkbrook, Birmingham B11 1NR","phone":"+44 121 773 5735","trad":"General","note":"","hl":false},{"name":"Durga Bhawan","area":"Smethwick","region":"West Midlands","county":"Sandwell","lat":52.5032,"lng":-1.9915,"addr":"360 Spon Ln S, Smethwick B66 1AB","phone":"+44 7828 602527","trad":"General","note":"","hl":false},{"name":"Shree Krishna Mandir","area":"West Bromwich","region":"West Midlands","county":"Sandwell","lat":52.5294,"lng":-2.0067,"addr":"81 Old Meeting St, West Bromwich B70 9SZ","phone":"","trad":"General","note":"","hl":false},{"name":"Hindu Temple Society","area":"Coventry","region":"West Midlands","county":"West Midlands","lat":52.4222,"lng":-1.4966,"addr":"380 Stoney Stanton Rd, Coventry CV6 5DJ","phone":"+44 24 7668 5898","trad":"General","note":"","hl":false},{"name":"Coventry Shri Sidhi Vinayagar Devasthanam","area":"Coventry","region":"West Midlands","county":"West Midlands","lat":52.4199,"lng":-1.5037,"addr":"65A George Eliot Rd, Coventry CV1 4HT","phone":"+44 24 7663 2211","trad":"Saiva","note":"Ganesha temple.","hl":false},{"name":"Sanatan Dharm Hindu Temple","area":"Coventry","region":"West Midlands","county":"West Midlands","lat":52.4352,"lng":-1.4921,"addr":"56 Mason Rd, Coventry CV6 7FJ","phone":"+44 24 7668 5125","trad":"General","note":"","hl":false},{"name":"Shree Krishna Temple","area":"Coventry","region":"West Midlands","county":"West Midlands","lat":52.416,"lng":-1.5079,"addr":"Harnall Ln W, Coventry CV1 4EZ","phone":"+44 24 7625 6981","trad":"General","note":"","hl":false},{"name":"ISKCON Coventry","area":"Coventry","region":"West Midlands","county":"West Midlands","lat":52.4221,"lng":-1.5091,"addr":"Kingfield Rd, Coventry CV1 4DW","phone":"+44 24 7655 2822","trad":"ISKCON","note":"","hl":false},{"name":"BAPS Shri Swaminarayan Mandir","area":"Coventry","region":"West Midlands","county":"West Midlands","lat":52.4154,"lng":-1.4839,"addr":"53 Heath Rd, Coventry CV2 4QB","phone":"+44 24 7643 1948","trad":"BAPS","note":"","hl":false},{"name":"Coventry Sripuram Siva Muthumariamman Thirukovil","area":"Coventry","region":"West Midlands","county":"West Midlands","lat":52.4342,"lng":-1.5035,"addr":"Durbar Ave, Coventry CV6 5LW","phone":"+44 7480 757792","trad":"Saiva","note":"First UK temple to Goddess Varahi.","hl":false},{"name":"Coventry-Eswaram (Shivan Temple)","area":"Coventry","region":"West Midlands","county":"West Midlands","lat":52.4104,"lng":-1.4966,"addr":"Coventry CV1 5LS","phone":"+44 7814 756577","trad":"Saiva","note":"Shiva temple.","hl":false},{"name":"Shree Krishan Mandir","area":"Wolverhampton","region":"West Midlands","county":"West Midlands","lat":52.5747,"lng":-2.1364,"addr":"123 Penn Rd, Wolverhampton WV3 0DU","phone":"+44 1902 772416","trad":"General","note":"","hl":false},{"name":"Ek Niwas Universal Divine Temple","area":"Wolverhampton","region":"West Midlands","county":"West Midlands","lat":52.5764,"lng":-2.1258,"addr":"71-72 Dudley Rd, Wolverhampton WV2 3BY","phone":"+44 1902 450494","trad":"General","note":"Baba Balak Nath temple.","hl":false},{"name":"Shri Durga Bhawan Temple","area":"Bilston","region":"West Midlands","county":"West Midlands","lat":52.5703,"lng":-2.0884,"addr":"97 Wellington Rd, Bilston WV14 6BQ","phone":"+44 1902 354081","trad":"General","note":"Hindu Welfare Society temple.","hl":false},{"name":"Hindu Cultural Society of Bradford","area":"Bradford","region":"Yorkshire and the Humber","county":"West Yorkshire","lat":53.7926,"lng":-1.7349,"addr":"341 Leeds Rd, Bradford BD3 9LS","phone":"+44 1274 395603","trad":"General","note":"Lakshmi Narayan mandir and cultural society.","hl":false},{"name":"Leeds Hindu Mandir","area":"Burley","region":"Yorkshire and the Humber","county":"West Yorkshire","lat":53.8078,"lng":-1.5712,"addr":"36 Alexandra Rd, Burley, Leeds LS6 1RF","phone":"+44 113 275 7024","trad":"General","note":"","hl":false},{"name":"BAPS Shri Swaminarayan Mandir","area":"Burley","region":"Yorkshire and the Humber","county":"West Yorkshire","lat":53.8049,"lng":-1.5785,"addr":"1 Weaver St, Burley, Leeds LS4 2AU","phone":"+44 7929 416749","trad":"BAPS","note":"","hl":false},{"name":"Hindu Samaj Sheffield & District","area":"Sheffield","region":"Yorkshire and the Humber","county":"South Yorkshire","lat":53.3943,"lng":-1.4554,"addr":"21 Buckenham St, Sheffield S4 7JQ","phone":"+44 7469 377333","trad":"General","note":"","hl":false},{"name":"Gita Bhavan Hindu Temple","area":"Withington","region":"North West","county":"Greater Manchester","lat":53.4437,"lng":-2.2567,"addr":"231 Withington Rd, Manchester M16 8LU","phone":"+44 161 861 7042","trad":"General","note":"Major Manchester mandir and community centre.","hl":false},{"name":"Radha Krishna Mandir","area":"Withington","region":"North West","county":"Greater Manchester","lat":53.4331,"lng":-2.2233,"addr":"Brunswick Rd, Withington, Manchester M20 4QB","phone":"+44 161 445 1134","trad":"General","note":"At Gandhi Hall, Indian Association Manchester.","hl":false},{"name":"ISKCON Manchester","area":"Whalley Range","region":"North West","county":"Greater Manchester","lat":53.4521,"lng":-2.2545,"addr":"20 Mayfield Rd, Whalley Range, Manchester M16 8FT","phone":"+44 161 226 4416","trad":"ISKCON","note":"","hl":false},{"name":"BAPS Shri Swaminarayan Mandir","area":"Ashton-under-Lyne","region":"North West","county":"Greater Manchester","lat":53.5064,"lng":-2.0785,"addr":"105 Lees Rd, Ashton-under-Lyne OL6 8BQ","phone":"+44 161 330 5196","trad":"BAPS","note":"","hl":false},{"name":"Shree Swaminarayan Mandir Bolton","area":"Bolton","region":"North West","county":"Greater Manchester","lat":53.5728,"lng":-2.4426,"addr":"161 Deane Rd, Bolton BL3 5AH","phone":"","trad":"Swaminarayan","note":"","hl":false},{"name":"Shree Kutch Satsang Swaminarayan Temple","area":"Bolton","region":"North West","county":"Greater Manchester","lat":53.5652,"lng":-2.4461,"addr":"1-11 Adelaide St, Bolton BL3 3NY","phone":"+44 1204 652604","trad":"Swaminarayan","note":"","hl":false},{"name":"World Council of Hindus (VHP) Bolton","area":"Bolton","region":"North West","county":"Greater Manchester","lat":53.5829,"lng":-2.4399,"addr":"1 Thomas Holden St, Bolton BL1 2QG","phone":"+44 1204 527492","trad":"General","note":"","hl":false},{"name":"Shree Swaminarayan Mandir Oldham","area":"Oldham","region":"North West","county":"Greater Manchester","lat":53.531,"lng":-2.1145,"addr":"Copster Hill Rd, Oldham OL8 1QB","phone":"+44 161 652 0993","trad":"Swaminarayan","note":"","hl":false},{"name":"Shree Ram Mandir","area":"Ashton-under-Lyne","region":"North West","county":"Greater Manchester","lat":53.4894,"lng":-2.1041,"addr":"58 Kenyon St, Ashton-under-Lyne OL6 7DU","phone":"+44 161 343 4639","trad":"General","note":"Family-run mandir of 50+ years.","hl":false},{"name":"Gujarat Hindu Society Temple","area":"Preston","region":"North West","county":"Lancashire","lat":53.7528,"lng":-2.7118,"addr":"South Meadow Ln, Preston PR1 8JN","phone":"+44 1772 253901","trad":"General","note":"One of the largest temples in Lancashire.","hl":false,"hours":"Daily 8am–1pm, 5–8:30pm","updated":"2026-07-07"},{"name":"BAPS Shri Swaminarayan Mandir","area":"Preston","region":"North West","county":"Lancashire","lat":53.7583,"lng":-2.7141,"addr":"Pramukh Swami Pl, Preston PR1 8AH","phone":"+44 1772 562252","trad":"BAPS","note":"","hl":false},{"name":"Hindu Cultural Organisation","area":"Liverpool","region":"North West","county":"Merseyside","lat":53.4084,"lng":-2.9453,"addr":"253 Edge Ln, Edge Hill, Liverpool L7 9LB","phone":"+44 151 538 5442","trad":"General","note":"North-Indian community temple; serves meals on Tuesdays.","hl":false},{"name":"Sri Muthumari Amman Temple","area":"Kensington","region":"North West","county":"Merseyside","lat":53.4126,"lng":-2.9573,"addr":"17 Fielding St, Kensington, Liverpool L6 9AP","phone":"+44 151 260 3657","trad":"Saiva","note":"Amman temple.","hl":false},{"name":"Liverpool Shiva Vishnu Temple","area":"Birkenhead","region":"North West","county":"Merseyside","lat":53.3912,"lng":-3.0256,"addr":"6 Hemingford St, Birkenhead CH41 4AP","phone":"+44 7508 657674","trad":"Saiva","note":"","hl":false},{"name":"Liverpool Ganesh Temple","area":"Kirkby","region":"North West","county":"Merseyside","lat":53.4773,"lng":-2.875,"addr":"13 Delfby Cres, Kirkby, Liverpool L32 8TN","phone":"+44 151 546 7611","trad":"Saiva","note":"Ganesha temple.","hl":false},{"name":"Hindu Temple Newcastle","area":"Newcastle upon Tyne","region":"North East","county":"Tyne and Wear","lat":54.9764,"lng":-1.6571,"addr":"172 West Rd, Newcastle upon Tyne NE4 9QB","phone":"+44 191 273 3364","trad":"General","note":"Serves the North East Hindu community.","hl":false},{"name":"ISKCON Newcastle","area":"Newcastle upon Tyne","region":"North East","county":"Tyne and Wear","lat":54.9719,"lng":-1.6298,"addr":"304 Westgate Rd, Newcastle upon Tyne NE4 6AR","phone":"+44 191 272 1576","trad":"ISKCON","note":"","hl":false},{"name":"Aberdeen Hindu Temple","area":"Aberdeen","region":"Scotland","county":"Aberdeen","lat":57.1826,"lng":-2.179,"addr":"Bankhead Rd, Bucksburn, Aberdeen AB21 9HQ","phone":"+44 7459 146553","trad":"General","note":"The only Hindu temple in the north of Scotland.","hl":false},{"name":"Edinburgh Hindu Mandir & Cultural Centre","area":"Leith","region":"Scotland","county":"Edinburgh","lat":55.9706,"lng":-3.1693,"addr":"St Andrew Pl, Leith, Edinburgh EH6 7EG","phone":"+44 131 677 0905","trad":"General","note":"","hl":false},{"name":"Om Hindu Mandir","area":"Glasgow","region":"Scotland","county":"Glasgow","lat":55.8666,"lng":-4.2792,"addr":"1 La Belle Pl, Glasgow G3 7LH","phone":"+44 141 332 0482","trad":"General","note":"One of the oldest Hindu temples in Glasgow.","hl":false},{"name":"The Hindu Temple of Scotland","area":"Rutherglen","region":"Scotland","county":"Glasgow","lat":55.8269,"lng":-4.2073,"addr":"76 Hamilton Rd, Rutherglen, Glasgow G73 3DQ","phone":"+44 7843 602134","trad":"Saiva","note":"South Indian / Tamil tradition.","hl":false},{"name":"Sri Mangala Vinayagar Temple","area":"Glasgow","region":"Scotland","county":"Glasgow","lat":55.8835,"lng":-4.2522,"addr":"105 Denmark St, Glasgow G22 5EU","phone":"+44 7777 749582","trad":"Saiva","note":"Ganesha temple.","hl":false},{"name":"Dundee Hindu Cultural & Community Centre","area":"Dundee","region":"Scotland","county":"Dundee","lat":56.4559,"lng":-2.9939,"addr":"10 Taylor's Ln, Dundee DD2 1AQ","phone":"+44 1382 669652","trad":"General","note":"Serves the Dundee Hindu community.","hl":false},{"name":"Shree Swaminarayan Temple Cardiff","area":"Grangetown","region":"Wales","county":"Cardiff","lat":51.474,"lng":-3.1863,"addr":"4 Merches Pl, Cardiff CF11 6RD","phone":"+44 29 2037 1128","trad":"Swaminarayan","note":"","hl":false},{"name":"Sanatan Dharma Mandal & Hindu Community Centre","area":"Cardiff","region":"Wales","county":"Cardiff","lat":51.4783,"lng":-3.1525,"addr":"Lewis Rd, Cardiff CF24 5EB","phone":"+44 7747 080251","trad":"General","note":"","hl":false},{"name":"Dharma Mandir Newport","area":"Newport","region":"Wales","county":"Newport","lat":51.5606,"lng":-3.0373,"addr":"Duffryn, Newport NP10 8BD","phone":"+44 7904 082373","trad":"General","note":"","hl":false},{"name":"Skanda Vale (Maha Shakti Temple)","area":"Llanpumsaint","region":"Wales","county":"Carmarthenshire","lat":51.9664,"lng":-4.2972,"addr":"Skanda Vale, Llanpumsaint, Carmarthen SA33 6JT","phone":"+44 1559 384421","trad":"General","note":"Multi-faith ashram community in the Carmarthenshire hills.","hl":false},{"name":"ISKCON Belfast Krishna Temple","area":"Dunmurry","region":"Northern Ireland","county":"Antrim","lat":54.5613,"lng":-6.0168,"addr":"2a Brooklands Grange, Dunmurry, Belfast BT17 0SA","phone":"+44 7876 489319","trad":"ISKCON","note":"","hl":false},{"name":"Krishna Island (ISKCON Govindadwipa)","area":"Derrylin","region":"Northern Ireland","county":"Fermanagh","lat":54.1924,"lng":-7.4845,"addr":"Derrylin, Enniskillen BT92 9GN","phone":"+44 7548 311916","trad":"ISKCON","note":"ISKCON island temple on Lough Erne, reached by ferry.","hl":false},{"name":"Ipswich Hindu Samaj Mandir & Community Centre","area":"Ipswich","region":"East of England","county":"Suffolk","lat":52.0576,"lng":1.1533,"addr":"5 Thoroughfare, Ipswich IP1 1BX","phone":"+44 1473 399391","trad":"General","note":"The only Hindu temple in Ipswich.","hl":false},{"name":"Vedic Cultural Society of East Anglia","area":"Tunstall","region":"East of England","county":"Norfolk","lat":52.624,"lng":1.6018,"addr":"Tunstall, Norwich NR13 3QE","phone":"+44 7879 420072","trad":"General","note":"Monthly havan and festival gatherings near Norwich.","hl":false},{"name":"Chelmsford Shri Sanatana Shakti Mandir","area":"Great Baddow","region":"East of England","county":"Essex","lat":51.7208,"lng":0.4881,"addr":"37 Beehive Ln, Great Baddow, Chelmsford CM2 9TQ","phone":"","trad":"General","note":"","hl":false},{"name":"BAPS Shri Swaminarayan Mandir","area":"Southend-on-Sea","region":"East of England","county":"Essex","lat":51.5399,"lng":0.7167,"addr":"190 Queensway, Southend-on-Sea SS1 2LU","phone":"+44 1702 617381","trad":"BAPS","note":"","hl":false},{"name":"Southend Meenatshe Sundaresar Kovil","area":"Southend-on-Sea","region":"East of England","county":"Essex","lat":51.5428,"lng":0.7184,"addr":"105 Sutton Rd, Southend-on-Sea SS2 5PB","phone":"+44 7367 611601","trad":"Saiva","note":"Shiva (Sundareswarar) and Meenakshi temple.","hl":false},{"name":"Venkatakrishna Vrindavana (Udupi Sri Puthige Matha)","area":"St Albans","region":"East of England","county":"Hertfordshire","lat":51.7508,"lng":-0.3292,"addr":"1 Beaconsfield Rd, St Albans AL1 3RD","phone":"+44 7424 342419","trad":"General","note":"Udupi Krishna temple in a converted church.","hl":false},{"name":"U.K. Nagara Shiva Temple","area":"Chiswell Green","region":"East of England","county":"Hertfordshire","lat":51.7289,"lng":-0.3543,"addr":"Tippendell Ln, Chiswell Green, St Albans AL2 3HW","phone":"","trad":"Saiva","note":"Monthly Shiva worship gatherings.","hl":false},{"name":"Watford Velmurugan Hindu Temple","area":"Watford","region":"East of England","county":"Hertfordshire","lat":51.68,"lng":-0.3959,"addr":"453 St Albans Rd, Watford WD24 7RZ","phone":"+44 1923 229564","trad":"Saiva","note":"Murugan temple.","hl":false},{"name":"BAPS Shri Swaminarayan Mandir","area":"Havant","region":"South East","county":"Hampshire","lat":50.8549,"lng":-0.9809,"addr":"9 Leigh Rd, Havant PO9 2ES","phone":"+44 7412 694319","trad":"BAPS","note":"Serves the Portsmouth area.","hl":false},{"name":"Shree Swaminarayan Temple (ISSO)","area":"Portslade","region":"South East","county":"East Sussex","lat":50.8368,"lng":-0.2163,"addr":"79a Trafalgar Rd, Portslade, Brighton BN41 1GU","phone":"+44 1273 420200","trad":"Swaminarayan","note":"Serves Brighton and Hove.","hl":false},{"name":"Crawley Hindu Temple","area":"Crawley","region":"South East","county":"West Sussex","lat":51.1303,"lng":-0.211,"addr":"Apple Tree Centre, Ifield Ave, Crawley RH11 0AF","phone":"+44 7967 339790","trad":"General","note":"","hl":false},{"name":"Swaminarayan Hindu Temple (NarNarayan Dev Gadi)","area":"Crawley","region":"South East","county":"West Sussex","lat":51.1358,"lng":-0.2098,"addr":"Bonnetts Ln, Crawley RH11 0NY","phone":"+44 1293 550660","trad":"Swaminarayan","note":"Near Gatwick Airport.","hl":false},{"name":"Oxford Hindu Mandir & Community Centre","area":"Oxford","region":"South East","county":"Oxfordshire","lat":51.772,"lng":-1.2295,"addr":"Marsh Ln, Oxford OX3 0NQ","phone":"","trad":"General","note":"Opened 2026.","hl":false},{"name":"Medway Hindu Mandir","area":"Gillingham","region":"South East","county":"Kent","lat":51.3785,"lng":0.5485,"addr":"361 Canterbury St, Gillingham ME7 5XS","phone":"+44 7940 569999","trad":"General","note":"Serves the Medway towns.","hl":false},{"name":"Hindu Cultural Society (Gravesend)","area":"Gravesend","region":"South East","county":"Kent","lat":51.4412,"lng":0.3704,"addr":"10-12 Manor Rd, Gravesend DA12 1AA","phone":"+44 7951 949363","trad":"General","note":"","hl":false},{"name":"Gloucester Pillaiyar (Hindu) Temple","area":"Matson","region":"South West","county":"Gloucestershire","lat":51.8426,"lng":-2.2224,"addr":"1 Badminton Rd, Matson, Gloucester GL4 6AX","phone":"+44 7852 825313","trad":"Saiva","note":"Ganesha-led temple with multiple deities.","hl":false},{"name":"Shree Ram Mandir","area":"Walsall","region":"West Midlands","county":"West Midlands","lat":52.5732,"lng":-1.9957,"addr":"Ford St, Walsall WS2 9BW","phone":"+44 1922 634462","trad":"General","note":"","hl":false},{"name":"Mandir Baba Balak Nath","area":"Walsall","region":"West Midlands","county":"West Midlands","lat":52.5789,"lng":-1.9817,"addr":"96A Caldmore Rd, Walsall WS1 3PD","phone":"","trad":"General","note":"The only Baba Balak Nath temple in the UK.","hl":false},{"name":"Shri Radha Krishna Temple","area":"Telford","region":"West Midlands","county":"Shropshire","lat":52.6702,"lng":-2.4659,"addr":"20-22 Bank Rd, Telford TF4 2AZ","phone":"","trad":"General","note":"The Hindu temple for Shropshire.","hl":false},{"name":"Sri Kanakadurkai Amman Temple","area":"Longport","region":"West Midlands","county":"Staffordshire","lat":53.042,"lng":-2.2162,"addr":"Station St, Longport, Stoke-on-Trent ST6 4ND","phone":"+44 7706 335324","trad":"Saiva","note":"Traditional Tamil temple.","hl":false},{"name":"Hindu Temple & Community Centre","area":"Stoke-on-Trent","region":"West Midlands","county":"Staffordshire","lat":53.0307,"lng":-2.1659,"addr":"Bold St, Stoke-on-Trent ST1 6PD","phone":"+44 1782 874030","trad":"General","note":"The first Hindu temple in Stoke-on-Trent.","hl":false},{"name":"ISKCON Stoke","area":"Stoke-on-Trent","region":"West Midlands","county":"Staffordshire","lat":53.0145,"lng":-2.2102,"addr":"Victoria St, Stoke-on-Trent ST4 6EG","phone":"+44 7827 219904","trad":"ISKCON","note":"","hl":false},{"name":"Hull & East Riding Hindu Cultural Association","area":"Hull","region":"Yorkshire and the Humber","county":"East Riding of Yorkshire","lat":53.7438,"lng":-0.3517,"addr":"7 Park St, Hull HU3 2JF","phone":"+44 7845 458792","trad":"General","note":"The Hindu temple serving Hull.","hl":false},{"name":"Huddersfield Hindu Temple","area":"Huddersfield","region":"Yorkshire and the Humber","county":"West Yorkshire","lat":53.6448,"lng":-1.7792,"addr":"20 Zetland St, Huddersfield HD1 2RA","phone":"","trad":"General","note":"The only Hindu temple in Huddersfield.","hl":false},{"name":"Shiva Temple Manchester","area":"Stockport","region":"North West","county":"Greater Manchester","lat":53.4348,"lng":-2.1814,"addr":"5 Weybrook Rd, Stockport M19 2QD","phone":"+44 7765 451000","trad":"Saiva","note":"South Indian Shiva temple.","hl":false},{"name":"Hindu Cultural Society","area":"Middlesbrough","region":"North East","county":"North Yorkshire","lat":54.5695,"lng":-1.2131,"addr":"54 Westbourne Grove, North Ormesby, Middlesbrough TS3 6EF","phone":"+44 1642 218428","trad":"General","note":"Serves the Teesside Hindu community.","hl":false},{"name":"Middlesbrough Thiru Murugan Temple","area":"Middlesbrough","region":"North East","county":"North Yorkshire","lat":54.5706,"lng":-1.2508,"addr":"6 Lorne St, Middlesbrough TS1 5QY","phone":"+44 7956 770506","trad":"Saiva","note":"Tamil Murugan temple.","hl":false},{"name":"Wales Hanuman Temple","area":"Port Talbot","region":"Wales","county":"Neath Port Talbot","lat":51.5993,"lng":-3.7769,"addr":"10 Jersey St, Port Talbot SA13 1YR","phone":"+44 1639 885232","trad":"General","note":"Hanuman temple serving the Swansea and Port Talbot area.","hl":false},{"name":"Pashupatinath Temple","area":"Paisley","region":"Scotland","county":"Renfrewshire","lat":55.8568,"lng":-4.4071,"addr":"1 Priory Ave, Paisley PA34 4NS","phone":"+44 7442 901108","trad":"General","note":"Shiva temple.","hl":false},{"name":"Indian Community Centre (ICC Belfast)","area":"Belfast","region":"Northern Ireland","county":"Antrim","lat":54.6069,"lng":-5.9361,"addr":"86 Clifton St, Belfast BT13 1AB","phone":"+44 28 9024 9746","trad":"General","note":"Major Hindu community centre and temple, including a Tirupati (Balaji) shrine; hosts the annual Ramlila and Ravan Dahan.","hl":false,"hours":"Tue 6–7:30pm; Thu 6:30–7:30pm; Sat 6–7:30pm; Sun 5:30–6:30pm","updated":"2026-07-08"},{"name":"Sri Thurkkai Amman Temple","area":"Beeston","region":"East Midlands","county":"Nottinghamshire","lat":52.9192,"lng":-1.2021,"addr":"10a West Cres, Beeston, Nottingham NG9 1QE","phone":"+44 115 967 7751","trad":"Saiva","note":"Tamil temple dedicated to Durga (Thurkkai Amman), in a converted church in Beeston.","hl":false,"hours":"Daily 11am–2pm, 6–9pm","url":"https://www.nottinghamamman.org","updated":"2026-07-08"}]